[{"buoy":"SPOT-1810","name":"Copper Harbor Spotter","status":"active","id":176,"lat":47.476833,"lng":-87.8704,"url":"https:\/\/seagull.glos.org\/data-console\/176"},{"buoy":"SPOT-30363R","name":"Whitefish Point","status":"active","id":265,"lat":46.781588,"lng":-85.07083,"url":"https:\/\/seagull.glos.org\/data-console\/265"},{"buoy":"SPOT-31141C","name":"City of Duluth Park Point Buoy","status":"inactive","id":276,"lat":46.7721,"lng":-92.07972,"url":"https:\/\/seagull.glos.org\/data-console\/276"},{"buoy":"SPOT-1753","name":"Grand Marais, MN Spotter","status":"active","id":293,"lat":47.67556,"lng":-90.451058,"url":"https:\/\/seagull.glos.org\/data-console\/293"},{"buoy":"SPOT-1816NH","name":"North Huron Spotter Prior Observation Platform Dataset","status":"inactive","id":304,"lat":45.3515,"lng":-82.845,"url":"https:\/\/seagull.glos.org\/data-console\/304"},{"buoy":"45013","name":"Atwater 20-meter buoy (ATW20)","status":"active","id":2,"lat":43.098,"lng":-87.8496,"url":"https:\/\/seagull.glos.org\/data-console\/2"},{"buoy":"45014","name":"Green Bay buoy (GB17)","status":"active","id":43,"lat":44.8,"lng":-87.76,"url":"https:\/\/seagull.glos.org\/data-console\/43"},{"buoy":"45022","name":"Little Traverse Bay buoy","status":"inactive","id":61,"lat":45.403,"lng":-85.088,"url":"https:\/\/seagull.glos.org\/data-console\/61"},{"buoy":"45023","name":"North Entry Buoy, North Keweenaw Peninsula","status":"active","id":44,"lat":47.26993,"lng":-88.60705,"url":"https:\/\/seagull.glos.org\/data-console\/44"},{"buoy":"45024","name":"Ludington buoy","status":"inactive","id":62,"lat":43.97665,"lng":-86.55945,"url":"https:\/\/seagull.glos.org\/data-console\/62"},{"buoy":"45025","name":"South Entry Buoy, South Keweenaw Peninsula","status":"active","id":46,"lat":46.96873,"lng":-88.39768,"url":"https:\/\/seagull.glos.org\/data-console\/46"},{"buoy":"45026","name":"Cook Nuclear Plant buoy","status":"active","id":33,"lat":41.983,"lng":-86.617,"url":"https:\/\/seagull.glos.org\/data-console\/33"},{"buoy":"45027","name":"Duluth-Nearshore Buoy","status":"active","id":42,"lat":46.86,"lng":-91.93,"url":"https:\/\/seagull.glos.org\/data-console\/42"},{"buoy":"45028","name":"Duluth-Offshore Buoy","status":"active","id":45,"lat":46.81,"lng":-91.84,"url":"https:\/\/seagull.glos.org\/data-console\/45"},{"buoy":"45029","name":"Port Sheldon buoy","status":"active","id":3,"lat":42.899572,"lng":-86.272291,"url":"https:\/\/seagull.glos.org\/data-console\/3"},{"buoy":"45161","name":"Muskegon Buoy","status":"active","id":49,"lat":43.179067,"lng":-86.36076,"url":"https:\/\/seagull.glos.org\/data-console\/49"},{"buoy":"45162","name":"Alpena Thunder Bay Buoy","status":"active","id":67,"lat":44.9883,"lng":-83.2687,"url":"https:\/\/seagull.glos.org\/data-console\/67"},{"buoy":"45163","name":"Saginaw Bay Buoy","status":"active","id":68,"lat":43.9826,"lng":-83.6001,"url":"https:\/\/seagull.glos.org\/data-console\/68"},{"buoy":"45164","name":"Cleveland Water Offshore Buoy","status":"active","id":70,"lat":41.73213,"lng":-81.69372,"url":"https:\/\/seagull.glos.org\/data-console\/70"},{"buoy":"45165","name":"Toledo Water Intake","status":"active","id":71,"lat":41.702033,"lng":-83.26145,"url":"https:\/\/seagull.glos.org\/data-console\/71"},{"buoy":"45168","name":"South Haven buoy","status":"active","id":37,"lat":42.397,"lng":-86.331,"url":"https:\/\/seagull.glos.org\/data-console\/37"},{"buoy":"45172","name":"Grand Marais Buoy","status":"inactive","id":64,"lat":46.741112,"lng":-85.975555,"url":"https:\/\/seagull.glos.org\/data-console\/64"},{"buoy":"45189","name":"Oswego buoy","status":"active","id":74,"lat":43.49,"lng":-76.52,"url":"https:\/\/seagull.glos.org\/data-console\/74"},{"buoy":"BGSUSD2","name":"Sandusky Bay","status":"inactive","id":79,"lat":41.469318,"lng":-82.75045,"url":"https:\/\/seagull.glos.org\/data-console\/79"},{"buoy":"OSUGI","name":"Gibralter Island Buoy","status":"inactive","id":56,"lat":41.65912,"lng":-82.8231,"url":"https:\/\/seagull.glos.org\/data-console\/56"},{"buoy":"UMBIO","name":"UM Bio buoy","status":"active","id":63,"lat":45.5651,"lng":-84.6723,"url":"https:\/\/seagull.glos.org\/data-console\/63"},{"buoy":"UTLCP","name":"Little Cedar Point","status":"inactive","id":54,"lat":41.724365,"lng":-83.370223,"url":"https:\/\/seagull.glos.org\/data-console\/54"},{"buoy":"45171","name":"Granite Island Buoy","status":"inactive","id":66,"lat":46.723888,"lng":-87.411388,"url":"https:\/\/seagull.glos.org\/data-console\/66"},{"buoy":"45210","name":"Rawley Point East - CDIP 269","status":"active","id":254,"lat":44.055,"lng":-87.05,"url":"https:\/\/seagull.glos.org\/data-console\/254"},{"buoy":"LSCDB","name":"Lake St. Clair Deep Water Buoy","status":"active","id":266,"lat":42.432218,"lng":-82.769972,"url":"https:\/\/seagull.glos.org\/data-console\/266"},{"buoy":"SPOT-1407","name":"West Grand Traverse Bay","status":"inactive","id":169,"lat":44.7877,"lng":-85.6245,"url":"https:\/\/seagull.glos.org\/data-console\/169"},{"buoy":"SPOT-30954C","name":"Park Point Beach - Beach House","status":"active","id":246,"lat":46.735746,"lng":-92.04268,"url":"https:\/\/seagull.glos.org\/data-console\/246"},{"buoy":"LSCSB","name":"Lake St. Clair Shallow Water Buoy","status":"active","id":255,"lat":42.544137,"lng":-82.829477,"url":"https:\/\/seagull.glos.org\/data-console\/255"},{"buoy":"OMECP_E2","name":"Western Lake Erie 2 - OMECP Environmental Sensors","status":"inactive","id":311,"lat":42.0,"lng":-82.647472,"url":"https:\/\/seagull.glos.org\/data-console\/311"},{"buoy":"45207","name":"Fairport Harbor","status":"active","id":257,"lat":41.762,"lng":-81.331,"url":"https:\/\/seagull.glos.org\/data-console\/257"},{"buoy":"45208","name":"Ashtabula","status":"active","id":256,"lat":41.934,"lng":-80.747,"url":"https:\/\/seagull.glos.org\/data-console\/256"},{"buoy":"45206","name":"Euclid Beach","status":"inactive","id":258,"lat":41.585,"lng":-81.583,"url":"https:\/\/seagull.glos.org\/data-console\/258"},{"buoy":"45205","name":"Edgewater Beach","status":"inactive","id":259,"lat":41.501,"lng":-81.748,"url":"https:\/\/seagull.glos.org\/data-console\/259"},{"buoy":"45204","name":"Sheffield","status":"inactive","id":260,"lat":41.508,"lng":-82.115,"url":"https:\/\/seagull.glos.org\/data-console\/260"},{"buoy":"45203","name":"Huron","status":"inactive","id":261,"lat":41.393,"lng":-82.512,"url":"https:\/\/seagull.glos.org\/data-console\/261"},{"buoy":"45202","name":"Port Clinton","status":"inactive","id":262,"lat":41.532,"lng":-82.941,"url":"https:\/\/seagull.glos.org\/data-console\/262"},{"buoy":"SPOT-1362","name":"Munising","status":"active","id":172,"lat":46.57025,"lng":-86.56816,"url":"https:\/\/seagull.glos.org\/data-console\/172"},{"buoy":"SPOT-1980","name":"Granite Island SPOT-1980","status":"inactive","id":149,"lat":46.724,"lng":-87.411,"url":"https:\/\/seagull.glos.org\/data-console\/149"},{"buoy":"45001","name":"Mid Lake Superior buoy","status":"inactive","id":177,"lat":48.061,"lng":-87.793,"url":"https:\/\/seagull.glos.org\/data-console\/177"},{"buoy":"45003","name":"North Lake Huron buoy","status":"inactive","id":179,"lat":45.351,"lng":-82.84,"url":"https:\/\/seagull.glos.org\/data-console\/179"},{"buoy":"45004","name":"East Lake Superior buoy","status":"inactive","id":180,"lat":47.585,"lng":-86.585,"url":"https:\/\/seagull.glos.org\/data-console\/180"},{"buoy":"45173","name":"Munising Buoy","status":"inactive","id":65,"lat":46.57281,"lng":-86.57217,"url":"https:\/\/seagull.glos.org\/data-console\/65"},{"buoy":"45175","name":"Mackinac Straits West buoy","status":"active","id":38,"lat":45.82526,"lng":-84.77217,"url":"https:\/\/seagull.glos.org\/data-console\/38"},{"buoy":"45170","name":"Michigan City Buoy","status":"active","id":47,"lat":41.755,"lng":-86.968,"url":"https:\/\/seagull.glos.org\/data-console\/47"},{"buoy":"UWRAEON1","name":"University of Windsor RAEON - Buoy 1","status":"inactive","id":50,"lat":41.816802,"lng":-82.740578,"url":"https:\/\/seagull.glos.org\/data-console\/50"},{"buoy":"UWRAEON2","name":"University of Windsor RAEON - Buoy 2","status":"inactive","id":51,"lat":41.84999,"lng":-82.43,"url":"https:\/\/seagull.glos.org\/data-console\/51"},{"buoy":"UWRAEON3","name":"University of Windsor RAEON - Buoy 3","status":"inactive","id":52,"lat":41.8175,"lng":-82.54137,"url":"https:\/\/seagull.glos.org\/data-console\/52"},{"buoy":"UWRAEON4","name":"University of Windsor RAEON - Buoy 4","status":"inactive","id":53,"lat":41.88865,"lng":-82.54852,"url":"https:\/\/seagull.glos.org\/data-console\/53"},{"buoy":"OSUSS","name":"Sandusky Subbasen Buoy","status":"inactive","id":55,"lat":41.53277,"lng":-82.4611,"url":"https:\/\/seagull.glos.org\/data-console\/55"},{"buoy":"45174","name":"Wilmette Buoy","status":"active","id":57,"lat":42.135,"lng":-87.655,"url":"https:\/\/seagull.glos.org\/data-console\/57"},{"buoy":"45176","name":"Cleveland Intake Crib","status":"active","id":72,"lat":41.55016,"lng":-81.76528,"url":"https:\/\/seagull.glos.org\/data-console\/72"},{"buoy":"45190","name":"Sodus Point","status":"active","id":75,"lat":43.282,"lng":-76.961,"url":"https:\/\/seagull.glos.org\/data-console\/75"},{"buoy":"GLERLWE2","name":"Western Erie 2","status":"inactive","id":80,"lat":41.762,"lng":-83.331,"url":"https:\/\/seagull.glos.org\/data-console\/80"},{"buoy":"GLERLWE4","name":"Western Erie 4","status":"inactive","id":81,"lat":41.826667,"lng":-83.195,"url":"https:\/\/seagull.glos.org\/data-console\/81"},{"buoy":"GLERLWE8","name":"Western Erie 8","status":"inactive","id":82,"lat":41.819167,"lng":-83.359167,"url":"https:\/\/seagull.glos.org\/data-console\/82"},{"buoy":"45183","name":"Sleeping Bear Dunes buoy","status":"active","id":58,"lat":44.98164,"lng":-85.83086,"url":"https:\/\/seagull.glos.org\/data-console\/58"},{"buoy":"45184","name":"Green Bay East buoy","status":"inactive","id":60,"lat":44.550283,"lng":-87.95888,"url":"https:\/\/seagull.glos.org\/data-console\/60"},{"buoy":"45185","name":"Green Bay West buoy","status":"inactive","id":59,"lat":44.57673,"lng":-87.987607,"url":"https:\/\/seagull.glos.org\/data-console\/59"},{"buoy":"45201","name":"Erie Islands Buoy","status":"inactive","id":263,"lat":41.601,"lng":-82.781,"url":"https:\/\/seagull.glos.org\/data-console\/263"},{"buoy":"SPOT-1563","name":"Muskegon","status":"active","id":274,"lat":43.1841,"lng":-86.3578,"url":"https:\/\/seagull.glos.org\/data-console\/274"},{"buoy":"OMECP_O1","name":"Western Lake Ontario 1 - OMECP Environmental Sensors","status":"inactive","id":312,"lat":43.80139,"lng":-79.01208,"url":"https:\/\/seagull.glos.org\/data-console\/312"},{"buoy":"SPOT-0592","name":"SBSK Point Betsie SPOT-0592","status":"inactive","id":301,"lat":44.75781,"lng":-86.26121,"url":"https:\/\/seagull.glos.org\/data-console\/301"},{"buoy":"SPOT-1408","name":"East Grand Traverse Bay","status":"inactive","id":170,"lat":44.7695,"lng":-85.5336,"url":"https:\/\/seagull.glos.org\/data-console\/170"},{"buoy":"UWSS-RAEON3-21","name":"University of Windsor RAEON - Buoy 3 2021","status":"inactive","id":86,"lat":41.973945,"lng":-82.780258,"url":"https:\/\/seagull.glos.org\/data-console\/86"},{"buoy":"45002","name":"North Lake Michigan buoy","status":"inactive","id":118,"lat":45.344,"lng":-86.411,"url":"https:\/\/seagull.glos.org\/data-console\/118"},{"buoy":"DGOWAK","name":"Dgowak (Waves) Weather Buoy","status":"inactive","id":126,"lat":45.720839,"lng":-85.008689,"url":"https:\/\/seagull.glos.org\/data-console\/126"},{"buoy":"PA-DEP-1538","name":"Presque Isle Bay","status":"inactive","id":85,"lat":42.1444,"lng":-80.125,"url":"https:\/\/seagull.glos.org\/data-console\/85"},{"buoy":"STURGEON","name":"Sturgeon Bay buoy","status":"active","id":94,"lat":44.881667,"lng":-87.409986,"url":"https:\/\/seagull.glos.org\/data-console\/94"},{"buoy":"45196","name":"Rocky River, OH Buoy","status":"active","id":96,"lat":41.5209,"lng":-81.8803,"url":"https:\/\/seagull.glos.org\/data-console\/96"},{"buoy":"45197","name":"Euclid, OH Buoy","status":"active","id":97,"lat":41.6194,"lng":-81.6176,"url":"https:\/\/seagull.glos.org\/data-console\/97"},{"buoy":"45191","name":"Oak Orchard Nearshore Monitoring Buoy","status":"active","id":100,"lat":43.388,"lng":-78.192,"url":"https:\/\/seagull.glos.org\/data-console\/100"},{"buoy":"WIM_351","name":"HW Ira Township","status":"inactive","id":102,"lat":42.683701,"lng":-82.667801,"url":"https:\/\/seagull.glos.org\/data-console\/102"},{"buoy":"WIM_831","name":"HW Marine City","status":"inactive","id":103,"lat":42.716702,"lng":-82.490799,"url":"https:\/\/seagull.glos.org\/data-console\/103"},{"buoy":"WIM_350","name":"HW Grosse Point Farms","status":"inactive","id":104,"lat":42.404301,"lng":-82.881798,"url":"https:\/\/seagull.glos.org\/data-console\/104"},{"buoy":"WIM_355","name":"HW Port Huron","status":"inactive","id":106,"lat":42.987099,"lng":-82.424797,"url":"https:\/\/seagull.glos.org\/data-console\/106"},{"buoy":"WIM_356","name":"HW Southwest","status":"inactive","id":107,"lat":42.229301,"lng":-83.206299,"url":"https:\/\/seagull.glos.org\/data-console\/107"},{"buoy":"WIM_357","name":"HW St. Clair","status":"inactive","id":108,"lat":42.825298,"lng":-82.484703,"url":"https:\/\/seagull.glos.org\/data-console\/108"},{"buoy":"WIM_358","name":"HW Water Works Park","status":"inactive","id":109,"lat":42.3549,"lng":-82.975304,"url":"https:\/\/seagull.glos.org\/data-console\/109"},{"buoy":"WIM_359","name":"HW Wyandotte","status":"inactive","id":110,"lat":42.2079,"lng":-83.1445,"url":"https:\/\/seagull.glos.org\/data-console\/110"},{"buoy":"WIM_832","name":"HW Algonac","status":"inactive","id":111,"lat":42.6211,"lng":-82.5267,"url":"https:\/\/seagull.glos.org\/data-console\/111"},{"buoy":"WIM_968","name":"HW Monroe","status":"inactive","id":112,"lat":41.947181,"lng":-83.255645,"url":"https:\/\/seagull.glos.org\/data-console\/112"},{"buoy":"WIM_352","name":"HW Marysville","status":"inactive","id":105,"lat":42.9073,"lng":-82.4657,"url":"https:\/\/seagull.glos.org\/data-console\/105"},{"buoy":"SPOT-1360","name":"Marquette","status":"active","id":139,"lat":46.59825,"lng":-87.37195,"url":"https:\/\/seagull.glos.org\/data-console\/139"},{"buoy":"SPOT-1361","name":"Grand Marais","status":"active","id":140,"lat":46.69567,"lng":-86.0038,"url":"https:\/\/seagull.glos.org\/data-console\/140"},{"buoy":"SPOT-1413","name":"West Sister Island (WE-13 Spotter)","status":"inactive","id":142,"lat":41.7411,"lng":-83.1363,"url":"https:\/\/seagull.glos.org\/data-console\/142"},{"buoy":"NICOLET","name":"Nicolet Bay buoy","status":"active","id":145,"lat":45.16881,"lng":-87.21914,"url":"https:\/\/seagull.glos.org\/data-console\/145"},{"buoy":"SPOT-1179","name":"Grand Portal Point","status":"inactive","id":90,"lat":46.5601,"lng":-86.4662,"url":"https:\/\/seagull.glos.org\/data-console\/90"},{"buoy":"SPOT-1041","name":"McGinty Cove (Isle Royale National Park)","status":"inactive","id":146,"lat":47.9131,"lng":-89.2292,"url":"https:\/\/seagull.glos.org\/data-console\/146"},{"buoy":"45187","name":"Winthrop","status":"active","id":88,"lat":42.490632,"lng":-87.778883,"url":"https:\/\/seagull.glos.org\/data-console\/88"},{"buoy":"45167","name":"Erie Nearshore Buoy for Erie, PA","status":"active","id":99,"lat":42.184658,"lng":-80.134842,"url":"https:\/\/seagull.glos.org\/data-console\/99"},{"buoy":"45198","name":"Chicago Pier Buoy","status":"active","id":98,"lat":41.8925,"lng":-87.563056,"url":"https:\/\/seagull.glos.org\/data-console\/98"},{"buoy":"SPOT-1127","name":"GLOS - Granite Island","status":"inactive","id":147,"lat":46.7241,"lng":-87.4113,"url":"https:\/\/seagull.glos.org\/data-console\/147"},{"buoy":"SPOT-1384","name":"Washington Island, WI","status":"inactive","id":148,"lat":45.3358,"lng":-86.9598,"url":"https:\/\/seagull.glos.org\/data-console\/148"},{"buoy":"OMECP_E1","name":"Lake Erie Central Basin buoy - OMECP Environmental Sensors","status":"inactive","id":93,"lat":42.409,"lng":-81.636,"url":"https:\/\/seagull.glos.org\/data-console\/93"},{"buoy":"SPOT-1981","name":"North Manitou Island","status":"inactive","id":171,"lat":45.0448,"lng":-86.0153,"url":"https:\/\/seagull.glos.org\/data-console\/171"},{"buoy":"45199","name":"Salmon Unlimited, WI Buoy","status":"active","id":153,"lat":42.7017,"lng":-87.6466,"url":"https:\/\/seagull.glos.org\/data-console\/153"},{"buoy":"SPOT-0700","name":"Copper Harbor","status":"inactive","id":136,"lat":47.4768,"lng":-87.8704,"url":"https:\/\/seagull.glos.org\/data-console\/136"},{"buoy":"45195","name":"Schuyler Reef, New York Wave Monitoring Buoy","status":"inactive","id":173,"lat":44.4874,"lng":-73.338418,"url":"https:\/\/seagull.glos.org\/data-console\/173"},{"buoy":"SPOT-1416","name":"Sheboygan, WI, USA","status":"inactive","id":144,"lat":43.728968,"lng":-87.618183,"url":"https:\/\/seagull.glos.org\/data-console\/144"},{"buoy":"RDC_NSF","name":"Radiatively-driven convection buoy for the National Science Foundation (RDC_NSF)","status":"inactive","id":164,"lat":47.43,"lng":-89.7133,"url":"https:\/\/seagull.glos.org\/data-console\/164"},{"buoy":"45007","name":"South Lake Michigan buoy","status":"inactive","id":181,"lat":42.672,"lng":-87.02,"url":"https:\/\/seagull.glos.org\/data-console\/181"},{"buoy":"45008","name":"South Lake Huron buoy","status":"inactive","id":182,"lat":44.283,"lng":-82.416,"url":"https:\/\/seagull.glos.org\/data-console\/182"},{"buoy":"45012","name":"East Lake Ontario buoy","status":"active","id":183,"lat":43.621,"lng":-77.406,"url":"https:\/\/seagull.glos.org\/data-console\/183"},{"buoy":"45005","name":"West Lake Erie buoy","status":"active","id":184,"lat":41.677,"lng":-82.398,"url":"https:\/\/seagull.glos.org\/data-console\/184"},{"buoy":"45006","name":"West Lake Superior buoy","status":"inactive","id":185,"lat":47.335,"lng":-89.793,"url":"https:\/\/seagull.glos.org\/data-console\/185"},{"buoy":"UWRAEON4-SL","name":"University of Windsor RAEON - Buoy 4 Sensor Line","status":"active","id":189,"lat":41.88927,"lng":-82.548233,"url":"https:\/\/seagull.glos.org\/data-console\/189"},{"buoy":"UWRAEON6","name":"University of Windsor RAEON - Buoy 6","status":"active","id":150,"lat":42.021333,"lng":-82.66964,"url":"https:\/\/seagull.glos.org\/data-console\/150"},{"buoy":"UWRAEON6-SL","name":"University of Windsor RAEON - Buoy 6 Sensor Line","status":"active","id":152,"lat":42.022722,"lng":-82.669806,"url":"https:\/\/seagull.glos.org\/data-console\/152"},{"buoy":"UWRAEON1-22","name":"University of Windsor RAEON - Buoy 1 2022","status":"inactive","id":166,"lat":44.174933,"lng":-81.653167,"url":"https:\/\/seagull.glos.org\/data-console\/166"},{"buoy":"UWSS-RAEON2-21","name":"University of Windsor RAEON - Buoy 2 2021","status":"inactive","id":73,"lat":41.912797,"lng":-82.736287,"url":"https:\/\/seagull.glos.org\/data-console\/73"},{"buoy":"UWRAEON5","name":"University of Windsor RAEON - Buoy 5","status":"inactive","id":190,"lat":42.0021,"lng":-82.578033,"url":"https:\/\/seagull.glos.org\/data-console\/190"},{"buoy":"UWRAEON5-SL","name":"University of Windsor RAEON - Buoy 5 Sensor Line","status":"inactive","id":191,"lat":42.00213,"lng":-82.577794,"url":"https:\/\/seagull.glos.org\/data-console\/191"},{"buoy":"UWRAEON7-SL","name":"University of Windsor RAEON - Buoy 7 Sensor Line","status":"inactive","id":193,"lat":41.99605,"lng":-82.7179,"url":"https:\/\/seagull.glos.org\/data-console\/193"},{"buoy":"MBB","name":"Mawickwe Bay Panther Buoy","status":"inactive","id":195,"lat":46.8882,"lng":-91.048,"url":"https:\/\/seagull.glos.org\/data-console\/195"},{"buoy":"DCW","name":"Discovery World Panther Buoy","status":"active","id":194,"lat":43.03594,"lng":-87.895963,"url":"https:\/\/seagull.glos.org\/data-console\/194"},{"buoy":"NEENAH","name":"Neenah Drinking Water Intake, Lake Winnebago","status":"active","id":205,"lat":44.178406,"lng":-88.43585,"url":"https:\/\/seagull.glos.org\/data-console\/205"},{"buoy":"ALGOMA","name":"Algoma Panther Buoy","status":"inactive","id":206,"lat":44.50551,"lng":-87.455552,"url":"https:\/\/seagull.glos.org\/data-console\/206"},{"buoy":"SPOT-30185R","name":"Sheboygan, WI","status":"inactive","id":211,"lat":43.7315,"lng":-87.625,"url":"https:\/\/seagull.glos.org\/data-console\/211"},{"buoy":"45180","name":"Isle Royale East Wave Buoy","status":"inactive","id":212,"lat":48.034,"lng":-87.73,"url":"https:\/\/seagull.glos.org\/data-console\/212"},{"buoy":"GBEL","name":"Green Bay Entrance Light","status":"inactive","id":154,"lat":44.65389,"lng":-87.929722,"url":"https:\/\/seagull.glos.org\/data-console\/154"},{"buoy":"45179","name":"Stannard Rock Buoy - Station 45179","status":"inactive","id":214,"lat":47.195,"lng":-87.224,"url":"https:\/\/seagull.glos.org\/data-console\/214"},{"buoy":"GLERLWE13","name":"Western Erie 13","status":"inactive","id":215,"lat":41.743,"lng":-83.135,"url":"https:\/\/seagull.glos.org\/data-console\/215"},{"buoy":"45186","name":"Waukegan","status":"active","id":87,"lat":42.367168,"lng":-87.795225,"url":"https:\/\/seagull.glos.org\/data-console\/87"},{"buoy":"45169","name":"Cleveland Wind Buoy","status":"inactive","id":216,"lat":41.615,"lng":-81.821,"url":"https:\/\/seagull.glos.org\/data-console\/216"},{"buoy":"GB000","name":"Green Bay LoRaWAN Platform 0","status":"active","id":174,"lat":44.6583,"lng":-87.8206,"url":"https:\/\/seagull.glos.org\/data-console\/174"},{"buoy":"SPOT-1415","name":"Two Rivers, WI, USA Prior Platform Observation Dataset","status":"inactive","id":143,"lat":44.3455,"lng":-87.4457,"url":"https:\/\/seagull.glos.org\/data-console\/143"},{"buoy":"45194","name":"McGulpin Point North, MI Wave Buoy","status":"active","id":187,"lat":45.8034,"lng":-84.7916,"url":"https:\/\/seagull.glos.org\/data-console\/187"},{"buoy":"BSU1","name":"Dunkirk Buoy","status":"active","id":160,"lat":42.56,"lng":-79.43,"url":"https:\/\/seagull.glos.org\/data-console\/160"},{"buoy":"BEACH2","name":"Beach 2 Buoy","status":"active","id":157,"lat":42.126286,"lng":-80.147505,"url":"https:\/\/seagull.glos.org\/data-console\/157"},{"buoy":"BEACH6","name":"Beach 6 Buoy","status":"active","id":158,"lat":42.144335,"lng":-80.139368,"url":"https:\/\/seagull.glos.org\/data-console\/158"},{"buoy":"UWRAEON7","name":"University of Windsor RAEON - Buoy 7","status":"inactive","id":192,"lat":41.99569,"lng":-82.717336,"url":"https:\/\/seagull.glos.org\/data-console\/192"},{"buoy":"45020","name":"Grand Traverse Bay South Buoy","status":"inactive","id":217,"lat":44.789,"lng":-85.604,"url":"https:\/\/seagull.glos.org\/data-console\/217"},{"buoy":"45166","name":"Vermont EPSCoR meteorological station - Lake Champlain","status":"inactive","id":218,"lat":44.785069,"lng":-73.25818,"url":"https:\/\/seagull.glos.org\/data-console\/218"},{"buoy":"45021","name":"Grand Traverse Bay North Buoy","status":"inactive","id":224,"lat":45.048,"lng":-85.493,"url":"https:\/\/seagull.glos.org\/data-console\/224"},{"buoy":"BGSDB","name":"Sandusky Bayside Water Intake","status":"inactive","id":226,"lat":41.4563,"lng":-82.6727,"url":"https:\/\/seagull.glos.org\/data-console\/226"},{"buoy":"NCWB","name":"North Central Winnebago Buoy","status":"active","id":229,"lat":44.07874,"lng":-88.43824,"url":"https:\/\/seagull.glos.org\/data-console\/229"},{"buoy":"BARK_PT","name":"Bark Point, WI","status":"inactive","id":230,"lat":46.8983,"lng":-91.1455,"url":"https:\/\/seagull.glos.org\/data-console\/230"},{"buoy":"UWSSRAEON1","name":"University of Windsor RAEON - Archival Buoy 1","status":"inactive","id":231,"lat":42.02185,"lng":-82.66967,"url":"https:\/\/seagull.glos.org\/data-console\/231"},{"buoy":"UWSSRAEON2","name":"University of Windsor RAEON - Archival Buoy 2","status":"inactive","id":232,"lat":41.99224,"lng":-82.71733,"url":"https:\/\/seagull.glos.org\/data-console\/232"},{"buoy":"OMECP_O2","name":"Western Lake Ontario 2 - OMECP Environmental Sensors","status":"inactive","id":241,"lat":43.572778,"lng":-79.512444,"url":"https:\/\/seagull.glos.org\/data-console\/241"},{"buoy":"45211","name":"Grand Island North, MI - CDIP 268","status":"active","id":264,"lat":46.9727,"lng":-86.5682,"url":"https:\/\/seagull.glos.org\/data-console\/264"},{"buoy":"BRADFORD","name":"Bradford Beach Panther Buoy","status":"inactive","id":289,"lat":43.0594,"lng":-87.86628,"url":"https:\/\/seagull.glos.org\/data-console\/289"},{"buoy":"BGSUSD","name":"Sandusky Bay buoy","status":"inactive","id":227,"lat":41.4629,"lng":-82.6502,"url":"https:\/\/seagull.glos.org\/data-console\/227"},{"buoy":"ESF2","name":"Sodus Bay South Buoy (ESF2)","status":"inactive","id":219,"lat":43.23,"lng":-76.94,"url":"https:\/\/seagull.glos.org\/data-console\/219"},{"buoy":"SPOT-30952C","name":"Port Washington, WI, USA","status":"active","id":250,"lat":43.316649,"lng":-87.828347,"url":"https:\/\/seagull.glos.org\/data-console\/250"},{"buoy":"45215","name":"Oswego, NY - CDIP 274","status":"active","id":574,"lat":43.5008,"lng":-76.53842,"url":"https:\/\/seagull.glos.org\/data-console\/574"},{"buoy":"45218","name":"Shipwreck Sentinel","status":"inactive","id":576,"lat":43.731,"lng":-87.625,"url":"https:\/\/seagull.glos.org\/data-console\/576"},{"buoy":"45216","name":"Ontonagon, MI","status":"active","id":577,"lat":46.932,"lng":-89.349548,"url":"https:\/\/seagull.glos.org\/data-console\/577"},{"buoy":"45217","name":"Wisconsin Point buoy","status":"active","id":579,"lat":46.70758,"lng":-91.99959,"url":"https:\/\/seagull.glos.org\/data-console\/579"},{"buoy":"SPOT-30364R","name":"Northern Green Bay Spotter","status":"active","id":581,"lat":45.54985,"lng":-86.8961,"url":"https:\/\/seagull.glos.org\/data-console\/581"},{"buoy":"SPOT-30114R - Les Cheneaux","name":"Les Cheneaux - prior deployment","status":"inactive","id":582,"lat":45.9213,"lng":-84.336801,"url":"https:\/\/seagull.glos.org\/data-console\/582"},{"buoy":"45132","name":"Port Stanley buoy","status":"active","id":583,"lat":42.46,"lng":-81.22,"url":"https:\/\/seagull.glos.org\/data-console\/583"},{"buoy":"45135","name":"Prince Edward Point","status":"inactive","id":584,"lat":43.78,"lng":-76.67,"url":"https:\/\/seagull.glos.org\/data-console\/584"},{"buoy":"45136","name":"Slate Island","status":"active","id":585,"lat":48.54,"lng":-86.95,"url":"https:\/\/seagull.glos.org\/data-console\/585"},{"buoy":"45137","name":"Georgian Bay","status":"active","id":586,"lat":45.54,"lng":-81.02,"url":"https:\/\/seagull.glos.org\/data-console\/586"},{"buoy":"45139","name":"Western Lake Ontario - Grimsby","status":"active","id":587,"lat":43.25,"lng":-79.53,"url":"https:\/\/seagull.glos.org\/data-console\/587"},{"buoy":"45142","name":"Port Colborne","status":"inactive","id":588,"lat":42.74,"lng":-79.29,"url":"https:\/\/seagull.glos.org\/data-console\/588"},{"buoy":"45143","name":"South Georgian Bay","status":"active","id":589,"lat":44.94,"lng":-80.627,"url":"https:\/\/seagull.glos.org\/data-console\/589"},{"buoy":"45147","name":"Lake St. Clair","status":"inactive","id":590,"lat":42.43,"lng":-82.68,"url":"https:\/\/seagull.glos.org\/data-console\/590"},{"buoy":"45149","name":"Southern Lake Huron","status":"active","id":591,"lat":43.54,"lng":-82.08,"url":"https:\/\/seagull.glos.org\/data-console\/591"},{"buoy":"45154","name":"North Channel East","status":"active","id":592,"lat":46.05,"lng":-82.64,"url":"https:\/\/seagull.glos.org\/data-console\/592"},{"buoy":"45159","name":"NW Lake Ontario Ajax","status":"active","id":593,"lat":43.77,"lng":-78.98,"url":"https:\/\/seagull.glos.org\/data-console\/593"},{"buoy":"SPOT-31359C","name":"Inverhuron ","status":"active","id":595,"lat":44.296771,"lng":-81.61657,"url":"https:\/\/seagull.glos.org\/data-console\/595"},{"buoy":"SPOT-31358C","name":"MacGregor Point","status":"active","id":596,"lat":44.440917,"lng":-81.50255,"url":"https:\/\/seagull.glos.org\/data-console\/596"},{"buoy":"SPOT-30976C","name":"Lorne Beach ","status":"active","id":597,"lat":44.232767,"lng":-81.635917,"url":"https:\/\/seagull.glos.org\/data-console\/597"},{"buoy":"UWRAEON1-24","name":"UWRAEON Buoy 1 2024","status":"inactive","id":599,"lat":42.639167,"lng":-81.185,"url":"https:\/\/seagull.glos.org\/data-console\/599"},{"buoy":"UWRAEON3-ECCC","name":"UWRAEON and ECCC Buoy 3","status":"inactive","id":600,"lat":41.982222,"lng":-82.660556,"url":"https:\/\/seagull.glos.org\/data-console\/600"},{"buoy":"UWRAEON3-SL","name":"UWRAEON and ECCC Sensor Line 3","status":"inactive","id":601,"lat":41.983056,"lng":-82.659167,"url":"https:\/\/seagull.glos.org\/data-console\/601"},{"buoy":"45219","name":"Two Harbors Nearshore Buoy","status":"active","id":608,"lat":47.021,"lng":-91.625,"url":"https:\/\/seagull.glos.org\/data-console\/608"},{"buoy":"GB001","name":"Green Bay LoRaWAN Buoy 1","status":"inactive","id":269,"lat":44.658,"lng":-87.883,"url":"https:\/\/seagull.glos.org\/data-console\/269"},{"buoy":"GB004","name":"Green Bay LoRaWAN Buoy 4","status":"testing","id":270,"lat":44.75,"lng":-87.821,"url":"https:\/\/seagull.glos.org\/data-console\/270"},{"buoy":"GB002","name":"Green Bay LoRaWAN Buoy 2","status":"active","id":271,"lat":44.706,"lng":-87.758,"url":"https:\/\/seagull.glos.org\/data-console\/271"},{"buoy":"GB003","name":"Green Bay LoRaWAN Buoy 3","status":"testing","id":272,"lat":44.706,"lng":-87.883,"url":"https:\/\/seagull.glos.org\/data-console\/272"},{"buoy":"GB005","name":"Green Bay LoRaWAN Buoy 5","status":"inactive","id":273,"lat":44.794,"lng":-87.696,"url":"https:\/\/seagull.glos.org\/data-console\/273"},{"buoy":"SPOT-1275-Neshotah","name":"Neshotah Park, WI Spotter Prior Platform Observation Dataset","status":"inactive","id":603,"lat":44.14891,"lng":-87.54886,"url":"https:\/\/seagull.glos.org\/data-console\/603"},{"buoy":"SPOT-1814","name":"Neshotah Park, WI, USA","status":"inactive","id":610,"lat":44.1491,"lng":-87.548633,"url":"https:\/\/seagull.glos.org\/data-console\/610"},{"buoy":"SPOT-31998C","name":"Georgian Bay Nearshore","status":"inactive","id":622,"lat":44.9048,"lng":-81.0198,"url":"https:\/\/seagull.glos.org\/data-console\/622"},{"buoy":"SPOT-30949C","name":"Two Rivers, WI, USA","status":"inactive","id":609,"lat":44.345783,"lng":-87.44555,"url":"https:\/\/seagull.glos.org\/data-console\/609"},{"buoy":"SPOT-31300C","name":"East Superior Spotter","status":"active","id":632,"lat":47.588,"lng":-86.588,"url":"https:\/\/seagull.glos.org\/data-console\/632"},{"buoy":"SPOT-31963C","name":"North Huron Spotter","status":"active","id":633,"lat":45.3515,"lng":-82.845,"url":"https:\/\/seagull.glos.org\/data-console\/633"},{"buoy":"SPOT-31964C","name":"South Michigan Spotter","status":"active","id":634,"lat":42.674,"lng":-87.0265,"url":"https:\/\/seagull.glos.org\/data-console\/634"},{"buoy":"SPOT-31302C","name":"SBSK Point Betsie Spotter","status":"active","id":638,"lat":44.757805,"lng":-86.261215,"url":"https:\/\/seagull.glos.org\/data-console\/638"},{"buoy":"GBCO2","name":"Green Bay Carbon Dioxide Buoy","status":"testing","id":644,"lat":44.801183,"lng":-87.767033,"url":"https:\/\/seagull.glos.org\/data-console\/644"},{"buoy":"SPOT-32256C","name":"Brucedale","status":"inactive","id":645,"lat":44.393633,"lng":-81.5361,"url":"https:\/\/seagull.glos.org\/data-console\/645"},{"buoy":"UWRAEON3-2025","name":"UWRAEON3 Lake Huron 2025","status":"active","id":646,"lat":44.5004,"lng":-81.3895,"url":"https:\/\/seagull.glos.org\/data-console\/646"},{"buoy":"SPOT-30985C","name":"OTT Wave and Water Level Buoy - Oconto","status":"active","id":643,"lat":44.919717,"lng":-87.7315,"url":"https:\/\/seagull.glos.org\/data-console\/643"},{"buoy":"SPOT-32274C","name":"OTT Wave and Water Level Buoy - Death's Door","status":"active","id":642,"lat":45.298967,"lng":-86.98085,"url":"https:\/\/seagull.glos.org\/data-console\/642"},{"buoy":"SPOT-0274","name":"Wave Watch Buoy - Devils Island","status":"active","id":647,"lat":47.083733,"lng":-90.725567,"url":"https:\/\/seagull.glos.org\/data-console\/647"},{"buoy":"SPOT-0693","name":"Wave Watch Buoy - Stockton Island","status":"active","id":648,"lat":46.90335,"lng":-90.545583,"url":"https:\/\/seagull.glos.org\/data-console\/648"},{"buoy":"SPOT-0694","name":"Wave Watch Buoy - Mainland Sea Caves","status":"active","id":649,"lat":46.90935,"lng":-91.03565,"url":"https:\/\/seagull.glos.org\/data-console\/649"},{"buoy":"SPOT-0697","name":"Wave Watch Buoy - Red Cliff Point","status":"active","id":650,"lat":46.888367,"lng":-90.727033,"url":"https:\/\/seagull.glos.org\/data-console\/650"},{"buoy":"SPOT-0702","name":"Wave Watch Buoy - The Flats","status":"active","id":651,"lat":46.741567,"lng":-90.6784,"url":"https:\/\/seagull.glos.org\/data-console\/651"},{"buoy":"SPOT-32278C","name":"LDF Big Crawl","status":"active","id":652,"lat":45.938983,"lng":-89.89575,"url":"https:\/\/seagull.glos.org\/data-console\/652"},{"buoy":"UWRAEON7-ECCC","name":"UWRAEON and ECCC Buoy 7","status":"inactive","id":654,"lat":41.9822,"lng":-82.6606,"url":"https:\/\/seagull.glos.org\/data-console\/654"},{"buoy":"SPOT-31419C","name":"Wisconsin Point, Superior, WI Spotter Buoy","status":"inactive","id":655,"lat":46.69916,"lng":-91.93635,"url":"https:\/\/seagull.glos.org\/data-console\/655"},{"buoy":"SPOT-32275C","name":"LDF Little Trout Lake","status":"active","id":656,"lat":46.06533,"lng":-89.84537,"url":"https:\/\/seagull.glos.org\/data-console\/656"},{"buoy":"GBPAS","name":"GBPAS LoRaWAN Buoy","status":"testing","id":657,"lat":44.595,"lng":-87.927,"url":"https:\/\/seagull.glos.org\/data-console\/657"},{"buoy":"GBLR","name":"GBLR LoRaWAN Buoy","status":"testing","id":658,"lat":44.8915,"lng":-87.5493,"url":"https:\/\/seagull.glos.org\/data-console\/658"},{"buoy":"SPOT-30111R","name":"Grand Marais, MN Spotter Buoy","status":"active","id":661,"lat":47.6756,"lng":-90.4511,"url":"https:\/\/seagull.glos.org\/data-console\/661"},{"buoy":"MACATAWA","name":"Lake Macatawa Monitoring Buoy","status":"active","id":668,"lat":42.7796,"lng":-86.1647,"url":"https:\/\/seagull.glos.org\/data-console\/668"},{"buoy":"SPOT-32277C","name":"Whitehall Spotter","status":"active","id":672,"lat":43.457322,"lng":-86.483617,"url":"https:\/\/seagull.glos.org\/data-console\/672"},{"buoy":"SPOT-33042C","name":"South Haven Spotter","status":"active","id":670,"lat":42.478326,"lng":-86.30352,"url":"https:\/\/seagull.glos.org\/data-console\/670"},{"buoy":"SPOT-32272C","name":"Grand Haven Spotter","status":"active","id":671,"lat":43.002254,"lng":-86.270803,"url":"https:\/\/seagull.glos.org\/data-console\/671"},{"buoy":"WALNUT","name":"Walnut Creek Buoy","status":"active","id":159,"lat":42.131825,"lng":-80.26972,"url":"https:\/\/seagull.glos.org\/data-console\/159"},{"buoy":"SPOT-30953C","name":"Les Cheneaux","status":"active","id":675,"lat":45.9213,"lng":-84.3368,"url":"https:\/\/seagull.glos.org\/data-console\/675"},{"buoy":"UWRAEON7-26","name":"University of Windsor - RAEON Buoy 7 - 2026","status":"active","id":676,"lat":41.998,"lng":-82.7148,"url":"https:\/\/seagull.glos.org\/data-console\/676"},{"buoy":"UWRAEON7-26 SL","name":"University of Windsor - RAEON Buoy 7 Sensor Line - 2026","status":"active","id":677,"lat":41.99753,"lng":-82.71453,"url":"https:\/\/seagull.glos.org\/data-console\/677"},{"buoy":"BSU2","name":"Buffalo Buoy","status":"active","id":666,"lat":42.846667,"lng":-78.903889,"url":"https:\/\/seagull.glos.org\/data-console\/666"},{"buoy":"SPOT-32579C","name":"Baie du Dor\u00e9","status":"active","id":678,"lat":44.37925,"lng":-81.580383,"url":"https:\/\/seagull.glos.org\/data-console\/678"}]