[{"buoy":"45013","name":"Atwater 20-meter buoy (ATW20)","status":"inactive","lat":43.098,"lng":-87.8496},{"buoy":"45014","name":"Green Bay buoy (GB17)","status":"inactive","lat":44.8,"lng":-87.76},{"buoy":"45022","name":"Little Traverse Bay buoy","status":"inactive","lat":45.403,"lng":-85.088},{"buoy":"45023","name":"North Entry Buoy, North Keweenaw Peninsula","status":"inactive","lat":47.26993,"lng":-88.60705},{"buoy":"45024","name":"Ludington buoy","status":"inactive","lat":43.97665,"lng":-86.55945},{"buoy":"45025","name":"South Entry Buoy, South Keweenaw Peninsula","status":"inactive","lat":46.96873,"lng":-88.39768},{"buoy":"45026","name":"Cook Nuclear Plant buoy","status":"inactive","lat":41.983,"lng":-86.617},{"buoy":"45027","name":"Duluth-Nearshore Buoy","status":"inactive","lat":46.86,"lng":-91.93},{"buoy":"45028","name":"Duluth-Offshore Buoy","status":"inactive","lat":46.81,"lng":-91.84},{"buoy":"45029","name":"Port Sheldon buoy","status":"inactive","lat":42.899572,"lng":-86.272291},{"buoy":"45161","name":"Muskegon Buoy","status":"inactive","lat":43.179067,"lng":-86.36076},{"buoy":"45162","name":"Alpena Thunder Bay Buoy","status":"inactive","lat":44.988,"lng":-83.331},{"buoy":"45163","name":"Saginaw Bay Buoy","status":"inactive","lat":43.986,"lng":-83.595},{"buoy":"45164","name":"Cleveland Water Offshore Buoy","status":"inactive","lat":41.73213,"lng":-81.69372},{"buoy":"45165","name":"Toledo Water Intake","status":"inactive","lat":41.702033,"lng":-83.26145},{"buoy":"45167","name":"Erie Nearshore Buoy for Erie, PA","status":"inactive","lat":42.184658,"lng":-80.134842},{"buoy":"45168","name":"South Haven buoy","status":"inactive","lat":42.397,"lng":-86.331},{"buoy":"45170","name":"Michigan City Buoy","status":"inactive","lat":41.755,"lng":-86.968},{"buoy":"45171","name":"Granite Island Buoy","status":"inactive","lat":46.723888,"lng":-87.411388},{"buoy":"45172","name":"Grand Marais Buoy","status":"inactive","lat":46.741112,"lng":-85.975555},{"buoy":"45173","name":"Munising Buoy","status":"inactive","lat":46.57281,"lng":-86.57217},{"buoy":"45174","name":"Wilmette Buoy","status":"inactive","lat":42.135,"lng":-87.655},{"buoy":"45175","name":"Mackinac Straits West buoy","status":"inactive","lat":45.82526,"lng":-84.77217},{"buoy":"45176","name":"Cleveland Intake Crib","status":"inactive","lat":41.55016,"lng":-81.76528},{"buoy":"45183","name":"Sleeping Bear Dunes buoy","status":"inactive","lat":44.98164,"lng":-85.83086},{"buoy":"45184","name":"Green Bay East buoy","status":"inactive","lat":44.550283,"lng":-87.95888},{"buoy":"45185","name":"Green Bay West buoy","status":"inactive","lat":44.57673,"lng":-87.987607},{"buoy":"45186","name":"Waukegan","status":"inactive","lat":42.367168,"lng":-87.795225},{"buoy":"45187","name":"Winthrop","status":"inactive","lat":42.490632,"lng":-87.778883},{"buoy":"45189","name":"Oswego buoy","status":"inactive","lat":43.49,"lng":-76.52},{"buoy":"45190","name":"Sodus Point","status":"inactive","lat":43.282,"lng":-76.961},{"buoy":"45191","name":"Oak Orchard Nearshore Monitoring Buoy","status":"inactive","lat":43.388,"lng":-78.192},{"buoy":"45195","name":"Schuyler Reef, New York Wave Monitoring Buoy","status":"inactive","lat":44.4874,"lng":-73.338418},{"buoy":"45196","name":"Rocky River, OH Buoy","status":"inactive","lat":41.5209,"lng":-81.8803},{"buoy":"45197","name":"Euclid, OH Buoy","status":"inactive","lat":41.6194,"lng":-81.6176},{"buoy":"45198","name":"Chicago Pier Buoy","status":"inactive","lat":41.8925,"lng":-87.563056},{"buoy":"45199","name":"Salmon Unlimited, WI Buoy","status":"inactive","lat":42.7017,"lng":-87.6466},{"buoy":"ALGOMA","name":"Algoma Panther Buoy","status":"inactive","lat":44.50551,"lng":-87.455552},{"buoy":"BEACH6","name":"Beach 6 Buoy","status":"inactive","lat":42.144335,"lng":-80.139368},{"buoy":"BGSUSD2","name":"Sandusky Bay","status":"inactive","lat":41.469318,"lng":-82.75045},{"buoy":"BSU1","name":"Dunkirk Buoy","status":"inactive","lat":42.56,"lng":-79.43},{"buoy":"DCW","name":"Discovery World Panther Buoy","status":"inactive","lat":43.03594,"lng":-87.895963},{"buoy":"DGOWAK","name":"Dgowak (Waves) Weather Buoy","status":"inactive","lat":45.720839,"lng":-85.008689},{"buoy":"GB000","name":"Green Bay LoRaWAN Platform 0","status":"testing","lat":44.6583,"lng":-87.8206},{"buoy":"GBEL","name":"Green Bay Entrance Light","status":"inactive","lat":44.65389,"lng":-87.929722},{"buoy":"GLERLWE2","name":"Western Erie 2","status":"inactive","lat":41.762,"lng":-83.331},{"buoy":"GLERLWE4","name":"Western Erie 4","status":"inactive","lat":41.826667,"lng":-83.195},{"buoy":"GLERLWE8","name":"Western Erie 8","status":"inactive","lat":41.819167,"lng":-83.359167},{"buoy":"MBB","name":"Mawickwe Bay Panther Buoy","status":"inactive","lat":46.8882,"lng":-91.048},{"buoy":"NEENAH","name":"Neenah Drinking Water Intake, Lake Winnebago","status":"inactive","lat":44.178406,"lng":-88.43585},{"buoy":"NICOLET","name":"Nicolet Bay buoy","status":"inactive","lat":45.16881,"lng":-87.21914},{"buoy":"OMECP_E1","name":"Lake Erie Central Basin buoy - OMECP Environmental Sensors","status":"inactive","lat":42.409,"lng":-81.636},{"buoy":"OSUGI","name":"Gibralter Island Buoy","status":"inactive","lat":41.65912,"lng":-82.8231},{"buoy":"OSUSS","name":"Sandusky Subbasen Buoy","status":"inactive","lat":41.53277,"lng":-82.4611},{"buoy":"PA-DEP-1538","name":"Presque Isle Bay","status":"inactive","lat":42.1444,"lng":-80.125},{"buoy":"RDC_NSF","name":"Radiatively-driven convection buoy for the National Science Foundation (RDC_NSF)","status":"inactive","lat":47.43,"lng":-89.7133},{"buoy":"SPOT-0700","name":"Copper Harbor","status":"inactive","lat":47.4768,"lng":-87.8704},{"buoy":"SPOT-1041","name":"McGinty Cove (Isle Royale National Park)","status":"inactive","lat":47.9131,"lng":-89.2292},{"buoy":"SPOT-1179","name":"Grand Portal Point","status":"inactive","lat":46.5601,"lng":-86.4662},{"buoy":"SPOT-1361","name":"Grand Marais","status":"inactive","lat":46.69567,"lng":-86.0038},{"buoy":"SPOT-1362","name":"Munising","status":"inactive","lat":46.57025,"lng":-86.56816},{"buoy":"SPOT-1384","name":"Washington Island, WI","status":"inactive","lat":45.3358,"lng":-86.9598},{"buoy":"SPOT-1415","name":"Two Rivers, WI, USA Prior Platform Observation Dataset","status":"inactive","lat":44.3455,"lng":-87.4457},{"buoy":"SPOT-1416","name":"Sheboygan, WI, USA","status":"inactive","lat":43.728968,"lng":-87.618183},{"buoy":"SPOT-1810","name":"Copper Harbor Spotter","status":"inactive","lat":47.476833,"lng":-87.8704},{"buoy":"SPOT-1980","name":"Granite Island SPOT-1980","status":"inactive","lat":46.724,"lng":-87.411},{"buoy":"STURGEON","name":"Sturgeon Bay buoy","status":"inactive","lat":44.881667,"lng":-87.409986},{"buoy":"UMBIO","name":"UM Bio buoy","status":"inactive","lat":45.5651,"lng":-84.6723},{"buoy":"UWRAEON7","name":"University of Windsor RAEON - Buoy 7","status":"inactive","lat":41.99569,"lng":-82.717336},{"buoy":"UTLCP","name":"Little Cedar Point","status":"inactive","lat":41.724365,"lng":-83.370223},{"buoy":"UWRAEON1","name":"University of Windsor RAEON - Buoy 1","status":"inactive","lat":41.816802,"lng":-82.740578},{"buoy":"UWRAEON1-22","name":"University of Windsor RAEON - Buoy 1 2022","status":"inactive","lat":44.174933,"lng":-81.653167},{"buoy":"UWRAEON2","name":"University of Windsor RAEON - Buoy 2","status":"inactive","lat":41.84999,"lng":-82.43},{"buoy":"UWRAEON3","name":"University of Windsor RAEON - Buoy 3","status":"inactive","lat":41.8175,"lng":-82.54137},{"buoy":"UWRAEON4","name":"University of Windsor RAEON - Buoy 4","status":"inactive","lat":41.88865,"lng":-82.54852},{"buoy":"UWRAEON4-SL","name":"University of Windsor RAEON - Buoy 4 Sensor Line","status":"inactive","lat":41.88927,"lng":-82.548233},{"buoy":"UWRAEON5","name":"University of Windsor RAEON - Buoy 5","status":"inactive","lat":42.0021,"lng":-82.578033},{"buoy":"UWRAEON5-SL","name":"University of Windsor RAEON - Buoy 5 Sensor Line","status":"inactive","lat":42.00213,"lng":-82.577794},{"buoy":"UWRAEON6","name":"University of Windsor RAEON - Buoy 6","status":"inactive","lat":42.021333,"lng":-82.66964},{"buoy":"UWRAEON6-SL","name":"University of Windsor RAEON - Buoy 6 Sensor Line","status":"inactive","lat":42.022722,"lng":-82.669806},{"buoy":"UWRAEON7-SL","name":"University of Windsor RAEON - Buoy 7 Sensor Line","status":"inactive","lat":41.99605,"lng":-82.7179},{"buoy":"UWSS-RAEON2-21","name":"University of Windsor RAEON - Buoy 2 2021","status":"inactive","lat":41.912797,"lng":-82.736287},{"buoy":"UWSS-RAEON3-21","name":"University of Windsor RAEON - Buoy 3 2021","status":"inactive","lat":41.973945,"lng":-82.780258},{"buoy":"WALNUT","name":"Walnut Creek Buoy","status":"inactive","lat":42.131825,"lng":-80.26972},{"buoy":"WIM_350","name":"HW Grosse Point Farms","status":"inactive","lat":42.404301,"lng":-82.881798},{"buoy":"WIM_351","name":"HW Ira Township","status":"inactive","lat":42.683701,"lng":-82.667801},{"buoy":"WIM_352","name":"HW Marysville","status":"inactive","lat":42.9073,"lng":-82.4657},{"buoy":"WIM_355","name":"HW Port Huron","status":"inactive","lat":42.987099,"lng":-82.424797},{"buoy":"WIM_356","name":"HW Southwest","status":"inactive","lat":42.229301,"lng":-83.206299},{"buoy":"WIM_357","name":"HW St. Clair","status":"inactive","lat":42.825298,"lng":-82.484703},{"buoy":"WIM_358","name":"HW Water Works Park","status":"inactive","lat":42.3549,"lng":-82.975304},{"buoy":"WIM_359","name":"HW Wyandotte","status":"inactive","lat":42.2079,"lng":-83.1445},{"buoy":"WIM_831","name":"HW Marine City","status":"inactive","lat":42.716702,"lng":-82.490799},{"buoy":"WIM_832","name":"HW Algonac","status":"inactive","lat":42.6211,"lng":-82.5267},{"buoy":"WIM_968","name":"HW Monroe","status":"inactive","lat":41.947181,"lng":-83.255645},{"buoy":"SPOT-30185R","name":"Sheboygan, WI","status":"inactive","lat":43.7315,"lng":-87.625},{"buoy":"SPOT-30954C","name":"Park Point Beach - Beach House","status":"inactive","lat":46.735746,"lng":-92.04268},{"buoy":"SPOT-30953C","name":"Two Rivers, WI, USA Buoy Second Prior Platform Observation Dataset","status":"inactive","lat":44.345567,"lng":-87.44574},{"buoy":"SPOT-30952C","name":"Port Washington, WI, USA","status":"inactive","lat":43.316649,"lng":-87.828347},{"buoy":"45210","name":"Rawley Point East - CDIP 269","status":"inactive","lat":44.055,"lng":-87.05},{"buoy":"45194","name":"McGulpin Point North, MI Wave Buoy","status":"inactive","lat":45.8034,"lng":-84.7916},{"buoy":"45180","name":"Isle Royale East Wave Buoy","status":"inactive","lat":48.034,"lng":-87.73},{"buoy":"45001","name":"Mid Lake Superior buoy","status":"inactive","lat":48.061,"lng":-87.793},{"buoy":"45002","name":"North Lake Michigan buoy","status":"inactive","lat":45.344,"lng":-86.411},{"buoy":"45003","name":"North Lake Huron buoy","status":"inactive","lat":45.351,"lng":-82.84},{"buoy":"45004","name":"East Lake Superior buoy","status":"inactive","lat":47.585,"lng":-86.585},{"buoy":"45005","name":"West Lake Erie buoy","status":"inactive","lat":41.677,"lng":-82.398},{"buoy":"45006","name":"West Lake Superior buoy","status":"inactive","lat":47.335,"lng":-89.793},{"buoy":"45007","name":"South Lake Michigan buoy","status":"inactive","lat":42.672,"lng":-87.02},{"buoy":"45008","name":"South Lake Huron buoy","status":"inactive","lat":44.283,"lng":-82.416},{"buoy":"45012","name":"East Lake Ontario buoy","status":"inactive","lat":43.621,"lng":-77.406},{"buoy":"45208","name":"Ashtabula","status":"inactive","lat":41.934,"lng":-80.747},{"buoy":"45207","name":"Fairport Harbor","status":"inactive","lat":41.762,"lng":-81.331},{"buoy":"45206","name":"Euclid Beach","status":"inactive","lat":41.585,"lng":-81.583},{"buoy":"45205","name":"Edgewater Beach","status":"inactive","lat":41.501,"lng":-81.748},{"buoy":"45204","name":"Sheffield","status":"inactive","lat":41.508,"lng":-82.115},{"buoy":"45203","name":"Huron","status":"inactive","lat":41.393,"lng":-82.512},{"buoy":"45202","name":"Port Clinton","status":"inactive","lat":41.532,"lng":-82.941},{"buoy":"45201","name":"Erie Islands Buoy","status":"inactive","lat":41.601,"lng":-82.781},{"buoy":"45211","name":"Grand Island North, MI - CDIP 268","status":"inactive","lat":46.9727,"lng":-86.5682},{"buoy":"SPOT-30363R","name":"Whitefish Point","status":"inactive","lat":46.781588,"lng":-85.07083},{"buoy":"UWRAEON2-23","name":"University of Windsor - RAEON Buoy 2 - 2023","status":"inactive","lat":42.028617,"lng":-82.46743},{"buoy":"GB001","name":"Green Bay LoRaWAN Buoy 1","status":"inactive","lat":44.658,"lng":-87.883},{"buoy":"GB004","name":"Green Bay LoRaWAN Buoy 4","status":"testing","lat":44.75,"lng":-87.821},{"buoy":"GB002","name":"Green Bay LoRaWAN Buoy 2","status":"testing","lat":44.706,"lng":-87.758},{"buoy":"GB003","name":"Green Bay LoRaWAN Buoy 3","status":"testing","lat":44.706,"lng":-87.883},{"buoy":"GB005","name":"Green Bay LoRaWAN Buoy 5","status":"inactive","lat":44.794,"lng":-87.696},{"buoy":"SPOT-1563","name":"Muskegon","status":"inactive","lat":43.18,"lng":-86.36},{"buoy":"SPOT-31141C","name":"City of Duluth Park Point Buoy","status":"inactive","lat":46.7721,"lng":-92.07972},{"buoy":"BRADFORD","name":"Bradford Beach Panther Buoy","status":"inactive","lat":43.0594,"lng":-87.86628},{"buoy":"SPOT-1753","name":"Grand Marais, MN Spotter","status":"inactive","lat":47.67556,"lng":-90.451058},{"buoy":"SPOT-1816NH","name":"North Huron Spotter Prior Observation Platform Dataset","status":"inactive","lat":45.3515,"lng":-82.845},{"buoy":"OMECP_E2","name":"Western Lake Erie 2 - OMECP Environmental Sensors","status":"inactive","lat":42.0,"lng":-82.647472},{"buoy":"OMECP_O1","name":"Western Lake Ontario 1 - OMECP Environmental Sensors","status":"inactive","lat":43.80139,"lng":-79.01208},{"buoy":"45215","name":"Oswego, NY - CDIP 274","status":"active","lat":43.5008,"lng":-76.53842},{"buoy":"45218","name":"Shipwreck Sentinel","status":"inactive","lat":43.731,"lng":-87.625},{"buoy":"45216","name":"Ontonagon, MI","status":"inactive","lat":46.932,"lng":-89.349548},{"buoy":"45217","name":"Wisconsin Point buoy","status":"inactive","lat":46.705858,"lng":-91.984722},{"buoy":"SPOT-30364R","name":"Northern Green Bay Spotter","status":"inactive","lat":45.54985,"lng":-86.8961},{"buoy":"SPOT-30114R","name":"Les Cheneaux","status":"inactive","lat":45.9213,"lng":-84.336801},{"buoy":"SPOT-31359C","name":"Inverhuron ","status":"inactive","lat":44.296771,"lng":-81.61657},{"buoy":"SPOT-31358C","name":"MacGregor Point","status":"inactive","lat":44.440917,"lng":-81.50255},{"buoy":"SPOT-30976C","name":"Lorne Beach ","status":"inactive","lat":44.232767,"lng":-81.635917},{"buoy":"UWRAEON1-24","name":"UWRAEON Buoy 1 2024","status":"inactive","lat":42.639167,"lng":-81.185},{"buoy":"UWRAEON3-ECCC","name":"UWRAEON and ECCC Buoy 3","status":"inactive","lat":41.982222,"lng":-82.660556},{"buoy":"UWRAEON3-SL","name":"UWRAEON and ECCC Sensor Line 3","status":"inactive","lat":41.983056,"lng":-82.659167},{"buoy":"SPOT-1275-Neshotah","name":"Neshotah Park, WI Spotter Prior Platform Observation Dataset","status":"inactive","lat":44.14891,"lng":-87.54886},{"buoy":"45219","name":"Two Harbors Nearshore Buoy","status":"inactive","lat":47.021,"lng":-91.625},{"buoy":"SPOT-30949C","name":"Two Rivers, WI, USA","status":"active","lat":44.345783,"lng":-87.44555},{"buoy":"SPOT-31998C","name":"Georgian Bay Nearshore","status":"inactive","lat":44.9048,"lng":-81.0198},{"buoy":"SPOT-31300C","name":"East Superior Spotter","status":"active","lat":47.588,"lng":-86.588},{"buoy":"SPOT-31963C","name":"North Huron Spotter","status":"active","lat":45.3515,"lng":-82.845},{"buoy":"SPOT-31964C","name":"South Michigan Spotter","status":"active","lat":42.674,"lng":-87.0265},{"buoy":"SPOT-32272C","name":"Muskegon Spotter","status":"inactive","lat":43.240088,"lng":-86.389977},{"buoy":"SPOT-32273C","name":"Holland Spotter","status":"inactive","lat":42.781693,"lng":-86.255113},{"buoy":"SPOT-32277C","name":"Ludington Spotter","status":"inactive","lat":43.928971,"lng":-86.505221},{"buoy":"SPOT-32274C","name":"OTT Wave and Water Level Buoy - Death's Door","status":"inactive","lat":45.298967,"lng":-86.98085},{"buoy":"SPOT-30985C","name":"OTT Wave and Water Level Buoy - Oconto","status":"inactive","lat":44.919717,"lng":-87.7315},{"buoy":"GBCO2","name":"Green Bay Carbon Dioxide Buoy","status":"inactive","lat":44.801183,"lng":-87.767033},{"buoy":"SPOT-32256C","name":"Brucedale","status":"active","lat":44.393633,"lng":-81.5361},{"buoy":"UWRAEON3-2025","name":"UWRAEON3 Lake Huron 2025","status":"inactive","lat":44.441583,"lng":-81.418694},{"buoy":"SPOT-0274","name":"Wave Watch Buoy - Devils Island","status":"inactive","lat":47.083733,"lng":-90.725567},{"buoy":"SPOT-0693","name":"Wave Watch Buoy - Stockton Island","status":"inactive","lat":46.90335,"lng":-90.545583},{"buoy":"SPOT-0694","name":"Wave Watch Buoy - Mainland Sea Caves","status":"inactive","lat":46.90935,"lng":-91.03565},{"buoy":"SPOT-0697","name":"Wave Watch Buoy - Red Cliff Point","status":"inactive","lat":46.888367,"lng":-90.727033},{"buoy":"SPOT-0702","name":"Wave Watch Buoy - The Flats","status":"inactive","lat":46.741567,"lng":-90.6784},{"buoy":"SPOT-32278C","name":"LDF Big Crawl","status":"inactive","lat":45.938983,"lng":-89.89575},{"buoy":"UWRAEON7-ECCC","name":"UWRAEON and ECCC Buoy 7","status":"inactive","lat":41.9822,"lng":-82.6606},{"buoy":"SPOT-31419C","name":"Wisconsin Point, Superior, WI Spotter Buoy","status":"inactive","lat":46.69916,"lng":-91.93635},{"buoy":"SPOT-32275C","name":"LDF Little Trout Lake","status":"inactive","lat":46.06533,"lng":-89.84537},{"buoy":"GBPAS","name":"GBPAS LoRaWAN Buoy","status":"inactive","lat":44.595,"lng":-87.927},{"buoy":"GBLR","name":"GBLR LoRaWAN Buoy","status":"inactive","lat":44.8915,"lng":-87.5493},{"buoy":"SPOT-30111R","name":"Grand Marais, MN Spotter Buoy","status":"active","lat":47.6756,"lng":-90.4511},{"buoy":"LSCDB","name":"Lake St. Clair Deep Water Buoy","status":"inactive","lat":42.432218,"lng":-82.769972},{"buoy":"45179","name":"Stannard Rock Buoy - Station 45179","status":"inactive","lat":47.195,"lng":-87.224},{"buoy":"45166","name":"Vermont EPSCoR meteorological station - Lake Champlain","status":"inactive","lat":44.785069,"lng":-73.25818},{"buoy":"BARK_PT","name":"Bark Point, WI","status":"inactive","lat":46.8983,"lng":-91.1455},{"buoy":"LSCSB","name":"Lake St. Clair Shallow Water Buoy","status":"inactive","lat":42.544137,"lng":-82.829477},{"buoy":"OMECP_O2","name":"Western Lake Ontario 2 - OMECP Environmental Sensors","status":"inactive","lat":43.572778,"lng":-79.512444},{"buoy":"SPOT-1413","name":"West Sister Island (WE-13 Spotter)","status":"inactive","lat":41.7411,"lng":-83.1363},{"buoy":"SPOT-1360","name":"Marquette","status":"inactive","lat":46.59825,"lng":-87.37195},{"buoy":"45142","name":"Port Colborne","status":"inactive","lat":42.74,"lng":-79.29},{"buoy":"45147","name":"Lake St. Clair","status":"inactive","lat":42.43,"lng":-82.68},{"buoy":"BGSDB","name":"Sandusky Bayside Water Intake","status":"inactive","lat":41.4563,"lng":-82.6727},{"buoy":"SPOT-1814","name":"Neshotah Park, WI, USA","status":"inactive","lat":44.1491,"lng":-87.548633},{"buoy":"SPOT-0592","name":"SBSK Point Betsie SPOT-0592","status":"inactive","lat":44.75781,"lng":-86.26121},{"buoy":"45159","name":"NW Lake Ontario Ajax","status":"inactive","lat":43.77,"lng":-78.98},{"buoy":"45143","name":"South Georgian Bay","status":"inactive","lat":44.94,"lng":-80.627},{"buoy":"GLERLWE13","name":"Western Erie 13","status":"inactive","lat":41.743,"lng":-83.135},{"buoy":"SPOT-31302C","name":"SBSK Point Betsie Spotter","status":"active","lat":44.757805,"lng":-86.261215},{"buoy":"UWSSRAEON2","name":"University of Windsor RAEON - Archival Buoy 2","status":"inactive","lat":41.99224,"lng":-82.71733},{"buoy":"SPOT-1408","name":"East Grand Traverse Bay","status":"inactive","lat":44.7695,"lng":-85.5336},{"buoy":"45169","name":"Cleveland Wind Buoy","status":"inactive","lat":41.615,"lng":-81.821},{"buoy":"45136","name":"Slate Island","status":"inactive","lat":48.54,"lng":-86.95},{"buoy":"45139","name":"Western Lake Ontario - Grimsby","status":"inactive","lat":43.25,"lng":-79.53},{"buoy":"45021","name":"Grand Traverse Bay North Buoy","status":"inactive","lat":45.048,"lng":-85.493},{"buoy":"45137","name":"Georgian Bay","status":"inactive","lat":45.54,"lng":-81.02},{"buoy":"45149","name":"Southern Lake Huron","status":"inactive","lat":43.54,"lng":-82.08},{"buoy":"ESF2","name":"Sodus Bay South Buoy (ESF2)","status":"inactive","lat":43.23,"lng":-76.94},{"buoy":"SPOT-1981","name":"North Manitou Island","status":"inactive","lat":45.0448,"lng":-86.0153},{"buoy":"BGSUSD","name":"Sandusky Bay buoy","status":"inactive","lat":41.4629,"lng":-82.6502},{"buoy":"45132","name":"Port Stanley buoy","status":"inactive","lat":42.46,"lng":-81.22},{"buoy":"NCWB","name":"North Central Winnebago Buoy","status":"inactive","lat":44.07874,"lng":-88.43824},{"buoy":"SPOT-1407","name":"West Grand Traverse Bay","status":"inactive","lat":44.7877,"lng":-85.6245},{"buoy":"SPOT-1127","name":"GLOS - Granite Island","status":"inactive","lat":46.7241,"lng":-87.4113},{"buoy":"BEACH2","name":"Beach 2 Buoy","status":"testing","lat":42.126286,"lng":-80.147505},{"buoy":"45135","name":"Prince Edward Point","status":"inactive","lat":43.78,"lng":-76.67},{"buoy":"45154","name":"North Channel East","status":"inactive","lat":46.05,"lng":-82.64},{"buoy":"UWSSRAEON1","name":"University of Windsor RAEON - Archival Buoy 1","status":"inactive","lat":42.02185,"lng":-82.66967},{"buoy":"45020","name":"Grand Traverse Bay South Buoy","status":"inactive","lat":44.789,"lng":-85.604}]